{
  "cities": [
    {
      "cityName": "Goure",
      "country": "Niger (the)",
      "emoji": "ðŸ‡³ðŸ‡ª",
      "date": "2024-08-23T10:21:34.000Z",
      "notes": "",
      "position": {
        "lat": "16.299073379216594",
        "lng": "10.435135821666812"
      },
      "id": 1
    },
    {
      "cityName": "Udaipur",
      "country": "India",
      "emoji": "ðŸ‡®ðŸ‡³",
      "date": "2024-09-10T19:11:22.037Z",
      "notes": "",
      "position": {
        "lat": "24.5969126820012",
        "lng": "73.80493185021534"
      },
      "id": 5
    },
    {
      "cityName": "Avanos",
      "country": "Turkiye",
      "emoji": "ðŸ‡¹ðŸ‡·",
      "date": "2024-09-10T19:14:58.530Z",
      "notes": "",
      "position": {
        "lat": "38.933872747128824",
        "lng": "34.88284818257744"
      },
      "id": 6
    },
    {
      "cityName": "Tchin Tabaraden",
      "country": "Niger (the)",
      "emoji": "ðŸ‡³ðŸ‡ª",
      "date": "2024-09-14T16:43:42.300Z",
      "notes": "",
      "position": {
        "lat": "16.509920793230776",
        "lng": "5.216614265699424"
      },
      "id": 7
    },
    {
      "cityName": "Ghoradongri",
      "country": "India",
      "emoji": "ðŸ‡®ðŸ‡³",
      "date": "2024-09-14T16:43:49.715Z",
      "notes": "",
      "position": {
        "lat": "22.06521259941321",
        "lng": "77.81439277789609"
      },
      "id": 8
    }
  ]
}